[{"line": "A", "coordinates": [4.8291954, 45.7530404], "stop_name": "Ampère - Victor Hugo", "underground": true},
{"line": "A", "coordinates": [4.9219541, 45.7612228], "stop_name": "Vaulx-en-Velin - La Soie", "underground": true},
{"line": "A", "coordinates": [4.9088208, 45.7641162], "stop_name": "Laurent Bonnevay - Astroballe", "underground": true},
{"line": "A", "coordinates": [4.9008369, 45.7656177], "stop_name": "Cusset", "underground": true},
{"line": "A", "coordinates": [4.8892785, 45.7677444], "stop_name": "Flachet - Alain Gilles", "underground": true},
{"line": "A", "coordinates": [4.8822998, 45.7690277], "stop_name": "Gratte-Ciel", "underground": true},
{"line": "A", "coordinates": [4.8739852, 45.7705609], "stop_name": "République - Villeurbanne", "underground": true},
{"line": "A", "coordinates": [4.8641875, 45.7705669], "stop_name": "Charpennes - Charles Hernu", "underground": true},
{"line": "A", "coordinates": [4.8534248, 45.7695736], "stop_name": "Masséna", "underground": true},
{"line": "A", "coordinates": [4.8443953, 45.768737], "stop_name": "Foch", "underground": true},
{"line": "A", "coordinates": [4.8360565, 45.7672702], "stop_name": "Hôtel de Ville - Louis Pradel", "underground": true},
{"line": "A", "coordinates": [4.8358281, 45.7633083], "stop_name": "Cordeliers", "underground": true},
{"line": "A", "coordinates": [4.8331247, 45.7575745], "stop_name": "Bellecour", "underground": true},
{"line": "A", "coordinates": [4.8268063, 45.7496116], "stop_name": "Perrache", "underground": true},
{"line": "B", "coordinates": [4.8634477, 45.7704521], "stop_name": "Charpennes - Charles Hernu", "underground": true},
{"line": "B", "coordinates": [4.8593396, 45.767117], "stop_name": "Brotteaux", "underground": true},
{"line": "B", "coordinates": [4.8574339, 45.761645], "stop_name": "Gare Part-Dieu - Vivier Merle", "underground": true},
{"line": "B", "coordinates": [4.8473512, 45.7592161], "stop_name": "Place Guichard - Bourse du Travail", "underground": true},
{"line": "B", "coordinates": [4.8466125, 45.7532993], "stop_name": "Saxe - Gambetta", "underground": true},
{"line": "B", "coordinates": [4.8422918, 45.7459347], "stop_name": "Jean Macé", "underground": true},
{"line": "B", "coordinates": [4.8373033, 45.7375695], "stop_name": "Place Jean Jaurès", "underground": true},
{"line": "B", "coordinates": [4.8334388, 45.7310747], "stop_name": "Debourg", "underground": true},
{"line": "B", "coordinates": [4.8308278, 45.7267611], "stop_name": "Stade de Gerland", "underground": true},
{"line": "B", "coordinates": [4.8145276, 45.7167014], "stop_name": "Gare d'Oullins", "underground": true},
{"line": "C", "coordinates": [4.8326307, 45.7853201], "stop_name": "Cuire", "underground": false},
{"line": "C", "coordinates": [4.82752, 45.7794999], "stop_name": "Hénon", "underground": true},
{"line": "C", "coordinates": [4.8320022, 45.77451], "stop_name": "Croix-Rousse", "underground": true},
{"line": "C", "coordinates": [4.8362035, 45.7710134], "stop_name": "Croix-Paquet", "underground": false},
{"line": "C", "coordinates": [4.836032, 45.7681512], "stop_name": "Hôtel de Ville - Louis Pradel", "underground": true},
{"line": "D", "coordinates": [4.8880198, 45.705464], "stop_name": "Gare de Vénissieux", "underground": true},
{"line": "D", "coordinates": [4.8875525, 45.7195177], "stop_name": "Parilly", "underground": true},
{"line": "D", "coordinates": [4.8873009, 45.7305576], "stop_name": "Mermoz - Pinel", "underground": true},
{"line": "D", "coordinates": [4.8865793, 45.7383722], "stop_name": "Laennec", "underground": true},
{"line": "D", "coordinates": [4.8788802, 45.7429973], "stop_name": "Grange Blanche", "underground": true},
{"line": "D", "coordinates": [4.8713767, 45.7455214], "stop_name": "Monplaisir - Lumière", "underground": true},
{"line": "D", "coordinates": [4.8652467, 45.747584], "stop_name": "Sans Souci", "underground": true},
{"line": "D", "coordinates": [4.853488, 45.7516219], "stop_name": "Garibaldi", "underground": true},
{"line": "D", "coordinates": [4.847025, 45.7539138], "stop_name": "Saxe - Gambetta", "underground": true},
{"line": "D", "coordinates": [4.8428428, 45.7553541], "stop_name": "Guillotière - Gabriel Péri", "underground": true},
{"line": "D", "coordinates": [4.8334117, 45.7570913], "stop_name": "Bellecour", "underground": true},
{"line": "D", "coordinates": [4.8256242, 45.7602383], "stop_name": "Vieux Lyon - Cathédrale Saint-Jean", "underground": true},
{"line": "D", "coordinates": [4.8055028, 45.7664422], "stop_name": "Gorge de Loup", "underground": true},
{"line": "D", "coordinates": [4.8054708, 45.7745978], "stop_name": "Valmy", "underground": true},
{"line": "D", "coordinates": [4.8045487, 45.7806026], "stop_name": "Gare de Vaise", "underground": true}]